$GNTXT,01,01,02,Starting GNSS*5A
$GNRMC,125304.00,A,4716.62729,N,03951.88017,E,0.002,,050218,,,A*67
$GNGGA,125304.00,4716.62729,N,03951.88017,E,1,12,0.69,95.2,M,16.1,M,,*73
$GPGSV,3,1,11,05,23,241,47,07,37,087,49,08,22,046,46,11,,,38*49
$GPGSV,3,2,11,13,50,303,50,15,20,312,40,17,12,165,45,20,19,299,38*7D
$GPGSV,3,3,11,28,82,165,45,30,62,076,51,33,14,243,35*4E
$GLGSV,3,1,11,65,51,287,50,66,10,338,46,71,02,179,27,72,42,211,48*60
$GLGSV,3,2,11,73,17,063,47,74,63,021,52,75,44,275,48,76,00,258,28*68
$GLGSV,3,3,11,82,02,001,45,83,24,045,47,84,21,104,46*5A
$GNRMC,125304.20,A,4716.62729,N,03951.88017,E,0.006,,050218,,,A*61
$GNGGA,125304.20,4716.62729,N,03951.88017,E,1,12,0.65,95.2,M,16.1,M,,*7D
$GPGSV,3,1,11,05,23,241,47,07,37,087,49,08,22,046,46,11,,,38*49
$GPGSV,3,2,11,13,50,303,50,15,20,312,40,17,12,165,45,20,19,299,38*7D
$GPGSV,3,3,11,28,82,165,45,30,62,076,51,33,14,243,35*4E
$GLGSV,3,1,11,65,51,287,50,66,10,338,46,71,02,179,27,72,42,211,48*60
$GLGSV,3,2,11,73,17,063,47,74,63,021,52,75,44,275,48,76,00,258,28*68
$GLGSV,3,3,11,82,02,001,45,83,24,045,47,84,21,104,46*5A
$GNRMC,125304.40,A,4716.62729,N,03951.88017,E,0.011,,050218,,,A*61
$GNGGA,125304.40,4716.62729,N,03951.88017,E,1,12,0.65,95.2,M,16.1,M,,*7B
$GPGSV,3,1,11,05,23,241,47,07,37,087,49,08,22,046,46,11,,,38*49
$GPGSV,3,2,11,13,50,303,50,15,20,312,40,17,12,165,45,20,19,299,38*7D
$GPGSV,3,3,11,28,82,165,45,30,62,076,51,33,14,243,35*4E
$GLGSV,3,1,11,65,51,287,50,66,10,338,46,71,02,179,28,72,42,211,48*6F
$GLGSV,3,2,11,73,17,064,47,74,63,021,52,75,44,275,48,76,00,258,27*60
$GLGSV,3,3,11,82,02,001,45,83,24,045,47,84,21,104,46*5A
$GNRMC,125304.60,A,4716.62730,N,03951.88017,E,0.003,,050218,,,A*68
$GNGGA,125304.60,4716.62730,N,03951.88017,E,1,12,0.65,95.2,M,16.1,M,,*71
$GPGSV,3,1,11,05,23,241,47,07,37,087,49,08,22,046,46,11,,,38*49
$GPGSV,3,2,11,13,50,303,50,15,20,312,40,17,12,165,45,20,19,299,38*7D
$GPGSV,3,3,11,28,82,165,45,30,62,076,51,33,14,243,35*4E
$GLGSV,3,1,11,65,51,287,50,66,10,338,46,71,02,179,28,72,42,211,48*6F
$GLGSV,3,2,11,73,17,064,47,74,63,021,52,75,44,275,48,76,00,258,27*60
$GLGSV,3,3,11,82,02,001,45,83,24,045,47,84,21,104,46*5A
$GNRMC,125304.80,A,4716.62730,N,03951.88017,E,0.012,,050218,,,A*66
$GNGGA,125304.80,4716.62730,N,03951.88017,E,1,12,0.65,95.2,M,16.1,M,,*7F
$GPGSV,3,1,11,05,23,241,47,07,37,087,49,08,22,046,46,11,,,38*49
$GPGSV,3,2,11,13,50,303,50,15,20,312,39,17,12,165,45,20,19,299,38*73
$GPGSV,3,3,11,28,82,165,46,30,62,076,51,33,14,243,35*4D
$GLGSV,3,1,11,65,51,287,50,66,10,338,46,71,02,179,28,72,42,211,48*6F
$GLGSV,3,2,11,73,17,064,47,74,63,021,52,75,44,275,48,76,00,258,27*60
$GLGSV,3,3,11,82,02,001,45,83,24,045,47,84,21,104,46*5A
$GNRMC,125305.00,A,4716.62730,N,03951.88017,E,0.016,,050218,,,A*6B
$GNGGA,125305.00,4716.62730,N,03951.88017,E,1,12,0.65,95.2,M,16.1,M,,*76
$GPGSV,3,1,11,05,23,241,47,07,37,087,49,08,22,046,46,11,,,39*48
$GPGSV,3,2,11,13,50,303,50,15,20,312,39,17,12,165,45,20,19,299,38*73
$GPGSV,3,3,11,28,82,165,46,30,62,076,51,33,14,243,35*4D
$GLGSV,3,1,11,65,51,287,50,66,10,338,46,71,02,179,28,72,42,211,48*6F
$GLGSV,3,2,11,73,17,064,47,74,63,021,51,75,44,275,48,76,00,258,27*63
$GLGSV,3,3,11,82,02,001,45,83,24,045,47,84,21,104,46*5A
$GNRMC,125305.20,A,4716.62731,N,03951.88017,E,0.007,,050218,,,A*68
$GNGGA,125305.20,4716.62731,N,03951.88017,E,1,12,0.65,95.2,M,16.1,M,,*75
$GPGSV,3,1,11,05,23,241,47,07,37,087,49,08,22,046,46,11,,,39*48
$GPGSV,3,2,11,13,50,303,50,15,20,312,39,17,12,165,45,20,19,299,38*73
$GPGSV,3,3,11,28,82,165,46,30,62,076,51,33,14,243,35*4D
$GLGSV,3,1,11,65,51,287,50,66,10,338,46,71,02,179,29,72,42,211,48*6E
$GLGSV,3,2,11,73,17,064,47,74,63,021,51,75,44,275,48,76,00,258,27*63
$GLGSV,3,3,11,82,02,001,45,83,24,045,47,84,21,104,46*5A
$GNRMC,125305.40,A,4716.62731,N,03951.88017,E,0.002,,050218,,,A*6B
$GNGGA,125305.40,4716.62731,N,03951.88017,E,1,12,0.65,95.2,M,16.1,M,,*73
$GPGSV,3,1,11,05,23,241,47,07,37,087,49,08,22,046,46,11,,,39*48
$GPGSV,3,2,11,13,50,303,49,15,20,312,39,17,12,165,45,20,19,299,38*7B
$GPGSV,3,3,11,28,82,165,46,30,62,076,51,33,14,243,35*4D
$GLGSV,3,1,11,65,51,287,50,66,10,338,47,71,02,179,29,72,42,211,48*6F
$GLGSV,3,2,11,73,17,064,46,74,63,021,51,75,44,275,48,76,00,258,27*62
$GLGSV,3,3,11,82,02,001,45,83,24,045,48,84,21,104,46*55
$GNRMC,125305.60,A,4716.62731,N,03951.88017,E,0.009,,050218,,,A*62
$GNGGA,125305.60,4716.62731,N,03951.88017,E,1,12,0.65,95.2,M,16.1,M,,*71
$GPGSV,3,1,11,05,23,241,47,07,37,087,49,08,22,046,46,11,,,39*48
$GPGSV,3,2,11,13,50,303,49,15,20,312,39,17,12,165,45,20,19,299,37*74
$GPGSV,3,3,11,28,82,165,46,30,62,076,51,33,14,243,35*4D
$GLGSV,3,1,11,65,51,287,50,66,10,338,47,71,02,179,29,72,42,211,48*6F
$GLGSV,3,2,11,73,17,064,47,74,63,021,51,75,44,275,48,76,00,258,27*63
$GLGSV,3,3,11,82,02,001,45,83,24,045,48,84,21,104,46*55
$GNRMC,125305.80,A,4716.62732,N,03951.88016,E,0.012,,050218,,,A*64
$GNGGA,125305.80,4716.62732,N,03951.88016,E,1,12,0.65,95.2,M,16.1,M,,*7D
$GPGSV,3,1,11,05,23,241,47,07,37,087,49,08,22,046,46,11,,,39*48
$GPGSV,3,2,11,13,50,303,49,15,20,312,39,17,12,165,45,20,19,299,37*74
$GPGSV,3,3,11,28,82,165,46,30,62,076,51,33,14,243,35*4D
$GLGSV,3,1,11,65,51,287,50,66,10,338,47,71,02,179,29,72,42,211,48*6F
$GLGSV,3,2,11,73,17,064,47,74,63,021,51,75,44,275,48,76,00,258,28*6C
$GLGSV,3,3,11,82,02,001,46,83,24,045,48,84,21,104,46*56
$GNRMC,125306.00,A,4716.62732,N,03951.88016,E,0.011,,050218,,,A*6C
$GNGGA,125306.00,4716.62732,N,03951.88016,E,1,12,0.65,95.2,M,16.1,M,,*76
$GPGSV,3,1,11,05,23,241,47,07,37,087,49,08,22,046,46,11,,,39*48
$GPGSV,3,2,11,13,50,303,49,15,20,312,39,17,12,165,45,20,19,299,37*74
$GPGSV,3,3,11,28,82,165,46,30,62,076,51,33,14,243,35*4D
$GLGSV,3,1,11,65,51,287,50,66,10,338,47,71,02,179,29,72,42,211,49*6E
$GLGSV,3,2,11,73,17,064,47,74,63,021,51,75,44,275,48,76,00,258,28*6C
$GLGSV,3,3,11,82,02,001,46,83,24,045,48,84,21,104,46*56
$GNRMC,125306.20,A,4716.62732,N,03951.88016,E,0.010,,050218,,,A*6F
$GNGGA,125306.20,4716.62732,N,03951.88016,E,1,12,0.65,95.2,M,16.1,M,,*74
$GPGSV,3,1,11,05,23,241,47,07,37,087,49,08,22,046,46,11,,,39*48
$GPGSV,3,2,11,13,50,303,50,15,20,312,39,17,12,165,45,20,19,299,37*7C
$GPGSV,3,3,11,28,82,165,46,30,62,076,51,33,14,243,35*4D
$GLGSV,3,1,11,65,51,287,50,66,10,338,47,71,02,179,29,72,42,211,49*6E
$GLGSV,3,2,11,73,17,064,47,74,63,021,51,75,44,275,49,76,00,258,28*6D
$GLGSV,3,3,11,82,02,001,46,83,24,045,48,84,21,104,46*56
$GNRMC,125306.40,A,4716.62733,N,03951.88016,E,0.017,,050218,,,A*6F
$GNGGA,125306.40,4716.62733,N,03951.88016,E,1,12,0.65,95.2,M,16.1,M,,*73
$GPGSV,3,1,11,05,23,241,47,07,37,087,49,08,22,046,46,11,,,39*48
$GPGSV,3,2,11,13,50,303,49,15,20,312,37,17,12,165,46,20,19,299,37*79
$GPGSV,3,3,11,28,82,165,46,30,62,076,51,33,14,243,35*4D
$GLGSV,3,1,11,65,51,287,50,66,10,338,47,71,02,179,29,72,42,211,49*6E
$GLGSV,3,2,11,73,17,064,47,74,63,021,51,75,44,275,49,76,00,258,28*6D
$GLGSV,3,3,11,82,02,001,46,83,24,045,48,84,21,104,46*56
$GNRMC,125306.60,A,4716.62733,N,03951.88016,E,0.020,,050218,,,A*69
$GNGGA,125306.60,4716.62733,N,03951.88016,E,1,12,0.65,95.2,M,16.1,M,,*71
$GPGSV,3,1,11,05,23,241,47,07,37,087,49,08,22,046,46,11,,,39*48
$GPGSV,3,2,11,13,50,303,49,15,20,312,37,17,12,165,46,20,19,299,37*79
$GPGSV,3,3,11,28,82,165,46,30,62,076,51,33,14,243,35*4D
$GLGSV,3,1,11,65,51,287,50,66,10,338,47,71,02,179,29,72,42,211,49*6E
$GLGSV,3,2,11,73,17,064,47,74,63,021,51,75,44,275,49,76,00,258,28*6D
$GLGSV,3,3,11,82,02,001,46,83,24,045,48,84,21,104,46*56
$GNRMC,125306.80,A,4716.62734,N,03951.88016,E,0.005,,050218,,,A*67
$GNGGA,125306.80,4716.62734,N,03951.88016,E,1,12,0.65,95.2,M,16.1,M,,*78
$GPGSV,3,1,11,05,23,241,47,07,37,087,49,08,22,046,46,11,,,39*48
$GPGSV,3,2,11,13,50,303,49,15,20,312,37,17,12,165,46,20,19,299,37*79
$GPGSV,3,3,11,28,82,165,46,30,62,076,51,33,14,243,35*4D
$GLGSV,3,1,11,65,51,287,50,66,10,338,47,71,02,179,29,72,42,211,49*6E
$GLGSV,3,2,11,73,17,064,47,74,63,021,51,75,44,275,49,76,00,258,28*6D
$GLGSV,3,3,11,82,02,001,46,83,24,045,48,84,21,104,46*56
$GNRMC,125307.00,A,4716.62734,N,03951.88016,E,0.019,,050218,,,A*63
$GNGGA,125307.00,4716.62734,N,03951.88016,E,1,12,0.65,95.2,M,16.1,M,,*71
$GPGSV,3,1,11,05,23,241,47,07,37,087,49,08,22,046,46,11,,,39*48
$GPGSV,3,2,11,13,50,303,49,15,20,312,38,17,12,165,46,20,19,299,37*76
$GPGSV,3,3,11,28,82,165,46,30,62,076,51,33,14,243,36*4E
$GLGSV,3,1,11,65,51,287,50,66,10,338,47,71,02,179,29,72,42,211,49*6E
$GLGSV,3,2,11,73,17,064,47,74,63,021,51,75,44,275,49,76,00,258,28*6D
$GLGSV,3,3,11,82,02,001,46,83,24,045,48,84,21,104,46*56
$GNRMC,125307.20,A,4716.62734,N,03951.88016,E,0.010,,050218,,,A*68
$GNGGA,125307.20,4716.62734,N,03951.88016,E,1,12,0.65,95.2,M,16.1,M,,*73
$GPGSV,3,1,11,05,23,241,47,07,37,087,49,08,22,046,46,11,,,39*48
$GPGSV,3,2,11,13,50,303,50,15,20,312,38,17,12,165,46,20,19,299,37*7E
$GPGSV,3,3,11,28,82,165,46,30,62,076,51,33,14,243,36*4E
$GLGSV,3,1,11,65,51,287,50,66,10,338,47,71,02,179,29,72,42,211,49*6E
$GLGSV,3,2,11,73,17,064,47,74,63,021,51,75,44,275,49,76,00,258,28*6D
$GLGSV,3,3,11,82,02,001,46,83,24,045,48,84,21,104,46*56
$GNRMC,125307.40,A,4716.62735,N,03951.88016,E,0.005,,050218,,,A*6B
$GNGGA,125307.40,4716.62735,N,03951.88016,E,1,12,0.65,95.2,M,16.1,M,,*74
$GPGSV,3,1,11,05,23,241,47,07,37,087,49,08,22,046,47,11,,,39*49
$GPGSV,3,2,11,13,50,303,50,15,20,312,38,17,12,165,46,20,19,299,37*7E
$GPGSV,3,3,11,28,82,165,46,30,62,076,51,33,14,243,36*4E
$GLGSV,3,1,11,65,51,287,50,66,10,338,46,71,02,179,29,72,42,211,49*6F
$GLGSV,3,2,11,73,17,064,47,74,63,021,51,75,44,275,49,76,00,258,28*6D
$GLGSV,3,3,11,82,02,001,46,83,24,045,48,84,21,104,46*56
$GNRMC,125307.60,A,4716.62735,N,03951.88016,E,0.004,,050218,,,A*68
$GNGGA,125307.60,4716.62735,N,03951.88016,E,1,12,0.65,95.2,M,16.1,M,,*76
$GPGSV,3,1,11,05,23,241,47,07,37,087,49,08,22,046,47,11,,,39*49
$GPGSV,3,2,11,13,50,303,50,15,20,312,38,17,12,165,46,20,19,299,37*7E
$GPGSV,3,3,11,28,82,165,46,30,62,076,51,33,14,243,36*4E
$GLGSV,3,1,11,65,51,287,50,66,10,338,46,71,02,179,29,72,42,211,49*6F
$GLGSV,3,2,11,73,17,064,47,74,63,021,51,75,44,275,49,76,00,258,28*6D
$GLGSV,3,3,11,82,02,001,45,83,24,045,48,84,21,104,45*56
$GNRMC,125307.80,A,4716.62736,N,03951.88016,E,0.014,,050218,,,A*64
$GNGGA,125307.80,4716.62736,N,03951.88016,E,1,12,0.65,95.2,M,16.1,M,,*7B
$GPGSV,3,1,11,05,23,240,47,07,37,087,49,08,22,046,47,11,,,39*48
$GPGSV,3,2,11,13,50,303,49,15,20,312,38,17,12,165,46,20,19,299,37*76
$GPGSV,3,3,11,28,82,165,46,30,62,076,51,33,14,243,36*4E
$GLGSV,3,1,11,65,51,287,50,66,10,338,46,71,02,179,29,72,42,211,49*6F
$GLGSV,3,2,11,73,17,064,47,74,63,021,51,75,44,275,49,76,00,258,28*6D
$GLGSV,3,3,11,82,02,001,45,83,24,045,48,84,21,104,45*56
$GNRMC,125308.00,A,4716.62736,N,03951.88017,E,0.008,,050218,,,A*6F
$GNGGA,125308.00,4716.62736,N,03951.88017,E,1,12,0.65,95.2,M,16.1,M,,*7D
$GPGSV,3,1,11,05,23,240,47,07,37,087,49,08,22,046,47,11,,,39*48
$GPGSV,3,2,11,13,50,303,49,15,20,312,38,17,12,165,46,20,19,299,37*76
$GPGSV,3,3,11,28,82,165,46,30,62,076,51,33,14,243,36*4E
$GLGSV,3,1,11,65,51,287,50,66,10,338,46,71,02,179,29,72,42,211,49*6F
$GLGSV,3,2,11,73,17,064,47,74,63,021,51,75,44,275,49,76,00,258,28*6D
$GLGSV,3,3,11,82,02,001,45,83,24,045,48,84,21,104,45*56
$GNRMC,125308.20,A,4716.62737,N,03951.88017,E,0.006,,050218,,,A*62
$GNGGA,125308.20,4716.62737,N,03951.88017,E,1,12,0.62,95.2,M,16.1,M,,*79
$GPGSV,3,1,11,05,23,240,47,07,37,087,49,08,22,046,47,11,,,39*48
$GPGSV,3,2,11,13,50,303,50,15,20,312,38,17,12,165,46,20,19,299,37*7E
$GPGSV,3,3,11,28,82,165,46,30,62,076,51,33,14,243,36*4E
$GLGSV,3,1,11,65,51,287,50,66,10,338,46,71,02,179,29,72,42,211,49*6F
$GLGSV,3,2,11,73,17,064,47,74,63,021,51,75,44,275,49,76,00,258,28*6D
$GLGSV,3,3,11,82,02,001,45,83,24,045,48,84,21,104,45*56
$GNRMC,125308.40,A,4716.62738,N,03951.88017,E,0.018,,050218,,,A*64
$GNGGA,125308.40,4716.62738,N,03951.88017,E,1,12,0.62,95.2,M,16.1,M,,*70
$GPGSV,3,1,11,05,23,240,47,07,37,087,49,08,22,046,47,11,,,39*48
$GPGSV,3,2,11,13,51,303,50,15,20,312,38,17,12,165,46,20,19,299,37*7F
$GPGSV,3,3,11,28,82,165,46,30,62,076,51,33,14,243,36*4E
$GLGSV,3,1,11,65,51,287,50,66,10,338,46,71,02,179,29,72,42,211,49*6F
$GLGSV,3,2,11,73,17,064,47,74,63,021,51,75,44,275,49,76,00,258,28*6D
$GLGSV,3,3,11,82,02,001,45,83,24,045,48,84,21,104,45*56
$GNRMC,125308.60,A,4716.62738,N,03951.88018,E,0.013,,050218,,,A*62
$GNGGA,125308.60,4716.62738,N,03951.88018,E,1,12,0.62,95.2,M,16.1,M,,*7D
$GPGSV,3,1,11,05,23,240,47,07,37,087,49,08,22,046,46,11,,,39*49
$GPGSV,3,2,11,13,51,303,50,15,20,312,38,17,12,165,46,20,19,299,37*7F
$GPGSV,3,3,11,28,82,165,46,30,62,076,51,33,14,243,36*4E
$GLGSV,3,1,11,65,51,287,50,66,10,338,46,71,02,179,29,72,42,211,49*6F
$GLGSV,3,2,11,73,17,064,48,74,63,021,51,75,44,275,49,76,00,258,28*62
$GLGSV,3,3,11,82,02,001,45,83,24,045,48,84,21,104,45*56
$GNRMC,125308.80,A,4716.62739,N,03951.88018,E,0.006,,050218,,,A*69
$GNGGA,125308.80,4716.62739,N,03951.88018,E,1,12,0.62,95.2,M,16.1,M,,*72
$GPGSV,3,1,11,05,23,240,47,07,37,087,49,08,22,046,46,11,,,39*49
$GPGSV,3,2,11,13,51,303,50,15,20,312,38,17,12,165,46,20,19,299,37*7F
$GPGSV,3,3,11,28,82,165,46,30,62,076,51,33,14,243,35*4D
$GLGSV,3,1,11,65,51,287,50,66,10,338,46,71,02,179,30,72,42,211,49*67
$GLGSV,3,2,11,73,17,064,48,74,63,021,51,75,44,275,49,76,00,258,28*62
$GLGSV,3,3,11,82,02,001,45,83,24,045,48,84,21,104,45*56
$GNRMC,125309.00,A,4716.62740,N,03951.88018,E,0.005,,050218,,,A*6D
$GNGGA,125309.00,4716.62740,N,03951.88018,E,1,12,0.62,95.2,M,16.1,M,,*75
$GPGSV,3,1,11,05,23,240,47,07,37,087,49,08,22,046,46,11,,,39*49
$GPGSV,3,2,11,13,51,303,50,15,20,312,37,17,12,165,46,20,19,299,37*70
$GPGSV,3,3,11,28,82,165,46,30,62,076,51,33,14,243,35*4D
$GLGSV,3,1,11,65,51,287,50,66,10,338,46,71,02,179,30,72,42,211,49*67
$GLGSV,3,2,11,73,17,064,48,74,63,021,51,75,44,275,49,76,00,258,28*62
$GLGSV,3,3,11,82,02,001,45,83,24,045,48,84,21,104,45*56
$GNRMC,125309.20,A,4716.62740,N,03951.88019,E,0.005,,050218,,,A*6E
$GNGGA,125309.20,4716.62740,N,03951.88019,E,1,12,0.62,95.2,M,16.1,M,,*76
$GPGSV,3,1,11,05,23,240,47,07,37,087,49,08,22,046,46,11,,,39*49
$GPGSV,3,2,11,13,51,303,50,15,20,312,38,17,12,165,46,20,19,299,37*7F
$GPGSV,3,3,11,28,82,165,46,30,62,076,51,33,14,243,35*4D
$GLGSV,3,1,11,65,51,287,50,66,10,338,46,71,02,179,31,72,42,211,49*66
$GLGSV,3,2,11,73,17,064,48,74,63,021,51,75,44,275,49,76,00,258,28*62
$GLGSV,3,3,11,82,02,001,46,83,24,045,49,84,21,104,45*54
$GNRMC,125309.40,A,4716.62741,N,03951.88019,E,0.010,,050218,,,A*6D
$GNGGA,125309.40,4716.62741,N,03951.88019,E,1,12,0.62,95.2,M,16.1,M,,*71
$GPGSV,3,1,11,05,23,240,47,07,37,087,49,08,22,046,46,11,,,39*49
$GPGSV,3,2,11,13,51,303,50,15,20,312,38,17,12,165,46,20,19,299,37*7F
$GPGSV,3,3,11,28,82,165,46,30,62,076,51,33,14,243,36*4E
$GLGSV,3,1,11,65,51,287,50,66,10,338,46,71,02,179,31,72,42,211,49*66
$GLGSV,3,2,11,73,17,064,48,74,63,021,51,75,44,275,49,76,00,258,28*62
$GLGSV,3,3,11,82,02,001,46,83,24,045,49,84,21,104,45*54
$GNRMC,125309.60,A,4716.62741,N,03951.88020,E,0.012,,050218,,,A*67
$GNGGA,125309.60,4716.62741,N,03951.88020,E,1,12,0.62,95.2,M,16.1,M,,*79
$GPGSV,3,1,11,05,23,240,47,07,37,087,49,08,22,046,46,11,,,39*49
$GPGSV,3,2,11,13,51,303,50,15,20,312,38,17,12,165,46,20,19,299,36*7E
$GPGSV,3,3,11,28,82,165,46,30,62,076,51,33,14,243,36*4E
$GLGSV,3,1,11,65,51,287,50,66,10,338,46,71,02,179,30,72,42,211,49*67
$GLGSV,3,2,11,73,17,064,48,74,63,021,51,75,44,275,49,76,00,258,28*62
$GLGSV,3,3,11,82,02,001,46,83,24,045,49,84,21,104,45*54
$GNRMC,125309.80,A,4716.62742,N,03951.88020,E,0.014,,050218,,,A*6C
$GNGGA,125309.80,4716.62742,N,03951.88020,E,1,12,0.62,95.2,M,16.1,M,,*74
$GPGSV,3,1,11,05,23,240,47,07,37,087,49,08,22,046,46,11,,,39*49
$GPGSV,3,2,11,13,51,303,50,15,20,312,38,17,12,165,46,20,19,299,37*7F
$GPGSV,3,3,11,28,82,165,46,30,62,076,51,33,14,243,36*4E
$GLGSV,3,1,11,65,51,287,50,66,10,338,47,71,02,179,30,72,42,211,49*66
$GLGSV,3,2,11,73,17,064,48,74,63,021,51,75,44,275,49,76,00,258,28*62
$GLGSV,3,3,11,82,02,001,46,83,24,045,49,84,21,104,45*54
$GNRMC,125310.00,A,4716.62742,N,03951.88020,E,0.009,,050218,,,A*60
$GNGGA,125310.00,4716.62742,N,03951.88020,E,1,12,0.62,95.2,M,16.1,M,,*74
$GPGSV,3,1,11,05,23,240,47,07,37,087,49,08,22,046,46,11,,,39*49
$GPGSV,3,2,11,13,51,303,50,15,20,312,38,17,12,165,45,20,19,299,37*7C
$GPGSV,3,3,11,28,82,165,45,30,62,076,51,33,14,243,36*4D
$GLGSV,3,1,11,65,51,287,50,66,10,338,47,71,02,179,31,72,42,211,49*67
$GLGSV,3,2,11,73,17,064,48,74,63,021,51,75,44,275,49,76,00,258,28*62
$GLGSV,3,3,11,82,02,001,46,83,24,045,49,84,21,104,45*54
$GNRMC,125310.20,A,4716.62742,N,03951.88021,E,0.010,,050218,,,A*6B
$GNGGA,125310.20,4716.62742,N,03951.88021,E,1,12,0.62,95.3,M,16.1,M,,*76
$GPGSV,3,1,11,05,23,240,47,07,37,087,49,08,22,046,46,11,,,39*49
$GPGSV,3,2,11,13,51,303,50,15,20,312,38,17,12,165,45,20,19,299,37*7C
$GPGSV,3,3,11,28,82,164,45,30,62,076,51,33,14,243,35*4F
$GLGSV,3,1,11,65,51,287,50,66,10,338,47,71,02,179,31,72,42,211,49*67
$GLGSV,3,2,11,73,17,064,48,74,63,021,51,75,44,275,49,76,00,258,28*62
$GLGSV,3,3,11,82,02,001,46,83,24,045,49,84,21,104,45*54
$GNRMC,125310.40,A,4716.62743,N,03951.88021,E,0.015,,050218,,,A*69
$GNGGA,125310.40,4716.62743,N,03951.88021,E,1,12,0.62,95.3,M,16.1,M,,*71
$GPGSV,3,1,11,05,23,240,47,07,37,087,49,08,22,046,46,11,,,39*49
$GPGSV,3,2,11,13,51,303,50,15,20,312,38,17,12,165,45,20,19,299,36*7D
$GPGSV,3,3,11,28,82,164,45,30,62,076,51,33,14,243,35*4F
$GLGSV,3,1,11,65,51,287,50,66,10,338,47,71,02,179,31,72,42,211,49*67
$GLGSV,3,2,11,73,17,064,48,74,63,021,51,75,44,275,49,76,00,258,28*62
$GLGSV,3,3,11,82,02,001,46,83,24,045,49,84,21,104,45*54
$GNRMC,125310.60,A,4716.62743,N,03951.88021,E,0.011,,050218,,,A*6F
$GNGGA,125310.60,4716.62743,N,03951.88021,E,1,12,0.62,95.3,M,16.1,M,,*73
$GPGSV,3,1,11,05,23,240,47,07,37,087,49,08,22,046,46,11,,,39*49
$GPGSV,3,2,11,13,51,303,50,15,20,312,37,17,12,165,45,20,19,299,36*72
$GPGSV,3,3,11,28,82,164,45,30,62,076,51,33,14,243,35*4F
$GLGSV,3,1,11,65,51,287,50,66,10,338,47,71,02,179,31,72,42,211,49*67
$GLGSV,3,2,11,73,17,064,48,74,63,021,51,75,44,275,49,76,00,258,28*62
$GLGSV,3,3,11,82,02,001,46,83,24,045,48,84,21,104,45*55
$GNRMC,125310.80,A,4716.62743,N,03951.88022,E,0.007,,050218,,,A*65
$GNGGA,125310.80,4716.62743,N,03951.88022,E,1,12,0.62,95.3,M,16.1,M,,*7E
$GPGSV,3,1,11,05,23,240,47,07,37,087,49,08,22,046,46,11,,,39*49
$GPGSV,3,2,11,13,51,303,50,15,20,312,37,17,12,165,45,20,19,299,36*72
$GPGSV,3,3,11,28,82,164,45,30,62,076,51,33,14,243,35*4F
$GLGSV,3,1,11,65,51,287,50,66,10,338,47,71,02,179,31,72,42,211,49*67
$GLGSV,3,2,11,73,17,064,48,74,63,021,51,75,44,275,49,76,00,258,28*62
$GLGSV,3,3,11,82,02,001,46,83,24,045,48,84,21,104,45*55
$GNRMC,125311.00,A,4716.62744,N,03951.88022,E,0.006,,050218,,,A*6A
$GNGGA,125311.00,4716.62744,N,03951.88022,E,1,12,0.62,95.3,M,16.1,M,,*70
$GPGSV,3,1,11,05,23,240,47,07,37,087,49,08,22,046,46,11,,,40*47
$GPGSV,3,2,11,13,51,303,49,15,20,312,37,17,12,165,45,20,19,299,36*7A
$GPGSV,3,3,11,28,82,164,45,30,62,076,51,33,14,243,35*4F
$GLGSV,3,1,11,65,51,287,50,66,10,338,47,71,02,179,31,72,42,211,49*67
$GLGSV,3,2,11,73,17,064,48,74,63,021,51,75,44,275,49,76,00,258,28*62
$GLGSV,3,3,11,82,02,001,46,83,24,045,48,84,21,104,45*55
$GNRMC,125311.20,A,4716.62744,N,03951.88022,E,0.014,,050218,,,A*6B
$GNGGA,125311.20,4716.62744,N,03951.88022,E,1,12,0.62,95.3,M,16.1,M,,*72
$GPGSV,3,1,11,05,23,240,47,07,37,087,49,08,22,046,46,11,,,40*47
$GPGSV,3,2,11,13,51,303,49,15,20,312,38,17,12,165,45,20,19,299,36*75
$GPGSV,3,3,11,28,82,164,45,30,62,076,51,33,14,243,35*4F
$GLGSV,3,1,11,65,51,287,50,66,10,338,47,71,02,179,31,72,42,211,49*67
$GLGSV,3,2,11,73,17,064,48,74,63,021,51,75,44,275,49,76,00,258,28*62
$GLGSV,3,3,11,82,02,001,46,83,24,045,48,84,21,104,45*55
$GNRMC,125311.40,A,4716.62744,N,03951.88023,E,0.005,,050218,,,A*6C
$GNGGA,125311.40,4716.62744,N,03951.88023,E,1,12,0.62,95.3,M,16.1,M,,*75
$GPGSV,3,1,11,05,23,240,47,07,37,087,49,08,22,046,46,11,,,40*47
$GPGSV,3,2,11,13,51,303,49,15,20,312,38,17,12,165,45,20,19,299,36*75
$GPGSV,3,3,11,28,82,164,45,30,62,076,51,33,14,243,35*4F
$GLGSV,3,1,11,65,51,287,50,66,10,338,47,71,02,179,31,72,42,211,49*67
$GLGSV,3,2,11,73,17,064,48,74,63,021,51,75,44,275,49,76,00,258,27*6D
$GLGSV,3,3,11,82,02,001,46,83,24,045,48,84,21,104,45*55
$GNRMC,125311.60,A,4716.62745,N,03951.88023,E,0.016,,050218,,,A*6D
$GNGGA,125311.60,4716.62745,N,03951.88023,E,1,12,0.62,95.3,M,16.1,M,,*76
$GPGSV,3,1,11,05,23,240,47,07,37,087,49,08,22,046,46,11,,,40*47
$GPGSV,3,2,11,13,51,303,49,15,20,312,38,17,12,165,45,20,19,299,36*75
$GPGSV,3,3,11,28,82,164,45,30,62,076,51,33,14,243,35*4F
$GLGSV,3,1,11,65,51,287,50,66,10,338,47,71,02,179,31,72,42,211,49*67
$GLGSV,3,2,11,73,17,064,48,74,63,021,51,75,44,275,49,76,00,258,27*6D
$GLGSV,3,3,11,82,02,001,46,83,24,045,48,84,21,104,45*55
$GNRMC,125311.80,A,4716.62745,N,03951.88024,E,0.006,,050218,,,A*65
$GNGGA,125311.80,4716.62745,N,03951.88024,E,1,12,0.62,95.3,M,16.1,M,,*7F
$GPGSV,3,1,11,05,23,240,47,07,37,087,49,08,22,046,46,11,,,40*47
$GPGSV,3,2,11,13,51,303,49,15,20,312,38,17,12,165,45,20,19,299,36*75
$GPGSV,3,3,11,28,82,164,45,30,62,076,51,33,14,243,35*4F
$GLGSV,3,1,11,65,51,287,50,66,10,338,47,71,02,179,31,72,42,211,49*67
$GLGSV,3,2,11,73,17,064,48,74,63,021,51,75,44,275,49,76,00,258,27*6D
$GLGSV,3,3,11,82,02,001,46,83,24,045,48,84,21,104,45*55
$GNRMC,125312.00,A,4716.62746,N,03951.88024,E,0.014,,050218,,,A*6E
$GNGGA,125312.00,4716.62746,N,03951.88024,E,1,12,0.62,95.3,M,16.1,M,,*77
$GPGSV,3,1,11,05,23,240,47,07,37,087,49,08,22,046,46,11,,,40*47
$GPGSV,3,2,11,13,51,303,49,15,20,312,38,17,12,165,45,20,19,299,36*75
$GPGSV,3,3,11,28,82,164,45,30,62,076,51,33,14,243,35*4F
$GLGSV,3,1,11,65,51,287,50,66,10,338,47,71,02,179,31,72,42,211,49*67
$GLGSV,3,2,11,73,17,064,48,74,63,021,51,75,44,275,49,76,00,258,27*6D
$GLGSV,3,3,11,82,02,001,46,83,24,045,48,84,21,104,45*55
$GNRMC,125312.20,A,4716.62746,N,03951.88024,E,0.009,,050218,,,A*60
$GNGGA,125312.20,4716.62746,N,03951.88024,E,1,12,0.62,95.3,M,16.1,M,,*75
$GPGSV,3,1,11,05,23,240,47,07,37,087,49,08,22,046,46,11,,,40*47
$GPGSV,3,2,11,13,51,303,49,15,20,312,38,17,12,165,45,20,19,299,36*75
$GPGSV,3,3,11,28,82,164,45,30,62,076,51,33,14,243,35*4F
$GLGSV,3,1,11,65,51,287,50,66,10,338,46,71,02,179,32,72,42,211,48*64
$GLGSV,3,2,11,73,17,064,48,74,63,021,51,75,44,275,49,76,00,258,27*6D
$GLGSV,3,3,11,82,02,001,46,83,24,045,48,84,21,104,45*55
$GNRMC,125312.40,A,4716.62747,N,03951.88024,E,0.043,,050218,,,A*69
$GNGGA,125312.40,4716.62747,N,03951.88024,E,1,12,0.62,95.3,M,16.1,M,,*72
$GPGSV,3,1,11,05,23,240,47,07,37,087,49,08,22,046,46,11,,,40*47
$GPGSV,3,2,11,13,51,303,49,15,20,312,38,17,12,165,45,20,19,299,36*75
$GPGSV,3,3,11,28,82,164,45,30,62,076,51,33,14,243,35*4F
$GLGSV,3,1,11,65,51,287,50,66,10,338,46,71,02,179,32,72,42,211,48*64
$GLGSV,3,2,11,73,17,064,48,74,63,021,51,75,44,275,49,76,00,258,28*62
$GLGSV,3,3,11,82,02,001,46,83,24,045,48,84,21,104,45*55
$GNRMC,125312.60,A,4716.62747,N,03951.88024,E,0.102,,050218,,,A*6F
$GNGGA,125312.60,4716.62747,N,03951.88024,E,1,12,0.62,95.3,M,16.1,M,,*70
$GPGSV,3,1,11,05,23,240,47,07,37,087,49,08,22,046,46,11,,,40*47
$GPGSV,3,2,11,13,51,303,49,15,20,312,38,17,12,165,45,20,19,299,36*75
$GPGSV,3,3,11,28,82,164,45,30,62,076,51,33,14,243,35*4F
$GLGSV,3,1,11,65,51,287,50,66,10,338,46,71,02,179,32,72,42,211,48*64
$GLGSV,3,2,11,73,17,064,48,74,63,021,51,75,44,275,49,76,00,258,28*62
$GLGSV,3,3,11,82,02,001,46,83,24,045,48,84,21,104,45*55
$GNRMC,125312.80,A,4716.62749,N,03951.88024,E,0.158,,050218,,,A*60
$GNGGA,125312.80,4716.62749,N,03951.88024,E,1,12,0.62,95.3,M,16.1,M,,*70
$GPGSV,3,1,11,05,23,240,47,07,37,087,49,08,22,046,46,11,,,40*47
$GPGSV,3,2,11,13,51,303,49,15,20,312,38,17,12,165,45,20,19,299,36*75
$GPGSV,3,3,11,28,82,164,45,30,62,076,51,33,14,243,35*4F
$GLGSV,3,1,11,65,51,287,50,66,10,338,45,71,02,179,31,72,42,211,48*64
$GLGSV,3,2,11,73,17,064,48,74,63,021,51,75,44,275,49,76,00,258,29*63
$GLGSV,3,3,11,82,02,001,47,83,24,045,48,84,21,104,45*54
$GNRMC,125313.00,A,4716.62750,N,03951.88023,E,0.253,348.50,050218,,,A*7A
$GNGGA,125313.00,4716.62750,N,03951.88023,E,1,12,0.62,95.3,M,16.1,M,,*76
$GPGSV,3,1,11,05,23,240,46,07,37,087,49,08,22,046,46,11,,,40*46
$GPGSV,3,2,11,13,51,303,49,15,20,312,38,17,12,165,45,20,19,299,36*75
$GPGSV,3,3,11,28,82,164,45,30,62,076,51,33,14,243,34*4E
$GLGSV,3,1,11,65,51,286,50,66,10,338,45,71,02,179,31,72,42,211,49*64
$GLGSV,3,2,11,73,17,064,48,74,63,021,51,75,44,275,48,76,00,258,29*62
$GLGSV,3,3,11,82,02,001,46,83,24,045,47,84,21,104,45*5A
$GNRMC,125313.20,A,4716.62753,N,03951.88023,E,0.415,348.13,050218,,,A*78
$GNGGA,125313.20,4716.62753,N,03951.88023,E,1,12,0.62,95.3,M,16.1,M,,*77
$GPGSV,3,1,11,05,23,240,44,07,37,087,49,08,22,046,46,11,,,40*44
$GPGSV,3,2,11,13,51,303,49,15,20,312,38,17,12,165,46,20,19,299,36*76
$GPGSV,3,3,11,28,82,164,45,30,62,076,51,33,14,243,31*4B
$GLGSV,3,1,11,65,51,286,50,66,10,337,47,71,02,179,25,72,42,211,48*6D
$GLGSV,3,2,11,73,17,064,48,74,63,021,51,75,44,275,48,76,00,258,29*62
$GLGSV,3,3,11,82,02,001,45,83,24,045,47,84,21,104,45*59
$GNRMC,125313.40,A,4716.62758,N,03951.88021,E,0.748,348.61,050218,,,A*79
$GNGGA,125313.40,4716.62758,N,03951.88021,E,1,12,0.62,95.3,M,16.1,M,,*78
$GPGSV,3,1,11,05,23,240,42,07,37,087,49,08,22,046,45,11,,,40*41
$GPGSV,3,2,11,13,51,303,49,15,20,312,35,17,12,165,46,20,19,299,33*7E
$GPGSV,3,3,11,28,82,164,46,30,62,076,52,33,14,243,31*4B
$GLGSV,3,1,11,65,51,286,49,66,10,337,43,71,02,179,25,72,42,211,48*61
$GLGSV,3,2,11,73,17,064,48,74,63,021,51,75,44,275,48,76,00,258,29*62
$GLGSV,3,3,11,82,02,001,43,83,24,045,48,84,21,104,46*53
$GNRMC,125313.60,A,4716.62763,N,03951.88019,E,0.989,347.12,050218,,,A*70
$GNGGA,125313.60,4716.62763,N,03951.88019,E,1,12,0.62,95.3,M,16.1,M,,*79
$GPGSV,3,1,11,05,23,240,47,07,37,087,49,08,22,046,46,11,,,40*47
$GPGSV,3,2,11,13,51,303,49,15,20,312,32,17,12,165,46,20,19,299,29*72
$GPGSV,3,3,11,28,82,164,46,30,62,076,52,33,14,243,35*4F
$GLGSV,3,1,11,65,51,286,49,66,10,337,46,71,02,179,26,72,42,211,49*66
$GLGSV,3,2,11,73,17,064,49,74,63,021,50,75,44,275,50,76,00,258,22*60
$GLGSV,3,3,11,82,02,001,44,83,24,045,48,84,21,104,45*57
$GNRMC,125313.80,A,4716.62771,N,03951.88017,E,1.427,346.96,050218,,,A*76
$GNGGA,125313.80,4716.62771,N,03951.88017,E,1,12,0.62,95.3,M,16.1,M,,*7A
$GPGSV,3,1,11,05,23,240,46,07,37,087,49,08,22,046,47,11,,,40*47
$GPGSV,3,2,11,13,51,303,49,15,20,312,40,17,12,165,46,20,19,299,35*7A
$GPGSV,3,3,11,28,82,164,46,30,62,076,52,33,14,243,35*4F
$GLGSV,3,1,11,65,51,286,48,66,10,337,46,71,02,179,26,72,42,211,48*66
$GLGSV,3,2,11,73,17,064,47,74,63,021,50,75,44,275,50,76,00,258,22*6E
$GLGSV,3,3,11,82,02,001,44,83,24,045,48,84,21,104,43*51
$GNRMC,125314.00,A,4716.62781,N,03951.88014,E,1.798,347.28,050218,,,A*76
$GNGGA,125314.00,4716.62781,N,03951.88014,E,1,12,0.62,95.3,M,16.1,M,,*79
$GPGSV,3,1,11,05,23,240,49,07,37,087,48,08,22,046,47,11,,,40*49
$GPGSV,3,2,11,13,51,303,49,15,20,312,44,17,12,165,46,20,19,299,35*7E
$GPGSV,3,3,11,28,82,164,46,30,62,076,52,33,14,243,32*48
$GLGSV,3,1,11,65,51,286,51,66,10,337,44,71,02,179,27,72,42,211,48*6D
$GLGSV,3,2,11,73,17,064,49,74,63,021,50,75,44,275,49,76,00,258,30*6B
$GLGSV,3,3,11,82,02,001,44,83,24,045,48,84,21,104,44*56
$GNRMC,125314.20,A,4716.62793,N,03951.88009,E,2.304,346.21,050218,,,A*71
$GNGGA,125314.20,4716.62793,N,03951.88009,E,1,12,0.62,95.3,M,16.1,M,,*74
$GPGSV,3,1,11,05,23,240,45,07,37,087,49,08,22,046,47,11,,,41*45
$GPGSV,3,2,11,13,51,303,48,15,20,312,45,17,12,165,46,20,19,299,32*79
$GPGSV,3,3,11,28,82,164,46,30,62,076,51,33,14,243,31*48
$GLGSV,3,1,11,65,51,286,51,66,10,337,45,71,02,179,27,72,42,211,47*63
$GLGSV,3,2,11,73,17,064,48,74,63,021,50,75,44,275,50,76,00,258,24*67
$GLGSV,3,3,11,82,02,001,44,83,24,045,49,84,21,104,44*57
$GNRMC,125314.40,A,4716.62808,N,03951.88004,E,2.731,345.66,050218,,,A*75
$GNGGA,125314.40,4716.62808,N,03951.88004,E,1,12,0.62,95.3,M,16.1,M,,*72
$GPGSV,3,1,11,05,23,240,45,07,37,087,49,08,22,046,46,11,,,41*44
$GPGSV,3,2,11,13,51,303,49,15,20,312,45,17,12,165,46,20,19,299,32*78
$GPGSV,3,3,11,28,82,164,46,30,62,076,51,33,14,243,32*4B
$GLGSV,3,1,11,65,51,286,49,66,10,337,44,71,02,179,32,72,41,211,49*62
$GLGSV,3,2,11,73,17,064,48,74,63,021,50,75,44,275,44,76,00,258,25*63
$GLGSV,3,3,11,82,02,001,43,83,24,045,48,84,21,104,45*50
$GNRMC,125314.60,A,4716.62826,N,03951.87997,E,3.290,344.94,050218,,,A*74
$GNGGA,125314.60,4716.62826,N,03951.87997,E,1,12,0.62,95.3,M,16.1,M,,*70
$GPGSV,3,1,11,05,23,240,46,07,37,087,49,08,22,046,46,11,,,40*46
$GPGSV,3,2,11,13,51,303,49,15,20,312,41,17,12,165,46,20,19,299,37*79
$GPGSV,3,3,11,28,82,164,46,30,62,076,51,33,14,243,35*4C
$GLGSV,3,1,11,65,51,286,51,66,10,337,45,71,02,179,27,72,41,211,48*6F
$GLGSV,3,2,11,73,17,064,47,74,63,021,50,75,44,275,46,76,00,258,25*6E
$GLGSV,3,3,11,82,02,001,44,83,24,045,48,84,21,104,45*57
$GNRMC,125314.80,A,4716.62847,N,03951.87989,E,3.948,344.88,050218,,,A*71
$GNGGA,125314.80,4716.62847,N,03951.87989,E,1,12,0.62,95.3,M,16.1,M,,*76
$GPGSV,3,1,11,05,23,240,44,07,37,087,49,08,22,046,46,11,,,38*4B
$GPGSV,3,2,11,13,51,303,49,15,20,312,42,17,12,165,47,20,19,299,38*74
$GPGSV,3,3,11,28,82,164,46,30,62,076,51,33,14,243,37*4E
$GLGSV,3,1,11,65,51,286,51,66,10,337,44,71,02,179,27,72,41,211,48*6E
$GLGSV,3,2,11,73,17,064,47,74,63,022,51,75,44,275,48,76,00,258,25*62
$GLGSV,3,3,11,82,02,001,44,83,24,045,48,84,21,104,44*56
$GNRMC,125315.00,A,4716.62870,N,03951.87980,E,4.321,345.40,050218,,,A*72
$GNGGA,125315.00,4716.62870,N,03951.87980,E,1,12,0.62,95.3,M,16.1,M,,*72
$GPGSV,3,1,11,05,23,240,46,07,37,087,50,08,22,046,47,11,,,40*4F
$GPGSV,3,2,11,13,51,303,49,15,20,312,42,17,12,165,47,20,19,299,30*7C
$GPGSV,3,3,11,28,82,164,46,30,62,076,51,33,14,243,35*4C
$GLGSV,3,1,11,65,51,286,50,66,10,337,45,71,02,179,31,72,41,211,47*66
$GLGSV,3,2,11,73,17,064,47,74,63,022,50,75,44,275,44,76,00,258,25*6F
$GLGSV,3,3,11,82,02,001,47,83,24,045,48,84,21,104,44*55
$GNRMC,125315.20,A,4716.62894,N,03951.87971,E,4.527,345.49,050218,,,A*7D
$GNGGA,125315.20,4716.62894,N,03951.87971,E,1,12,0.62,95.3,M,16.1,M,,*74
$GPGSV,3,1,11,05,23,240,45,07,37,087,48,08,22,046,46,11,,,40*44
$GPGSV,3,2,11,13,51,303,49,15,20,312,40,17,12,165,45,20,19,299,30*7C
$GPGSV,3,3,11,28,82,164,46,30,62,076,51,33,14,243,34*4D
$GLGSV,3,1,11,65,51,286,49,66,10,337,45,71,02,179,27,72,41,211,48*66
$GLGSV,3,2,11,73,17,064,48,74,63,022,50,75,44,275,51,76,00,258,26*67
$GLGSV,3,3,11,82,02,001,46,83,24,045,49,84,21,104,45*54
$GNRMC,125315.40,A,4716.62920,N,03951.87961,E,4.797,345.08,050218,,,A*78
$GNGGA,125315.40,4716.62920,N,03951.87961,E,1,12,0.62,95.3,M,16.1,M,,*7D
$GPGSV,3,1,11,05,23,240,48,07,37,087,49,08,22,046,46,11,,,40*48
$GPGSV,3,2,11,13,51,303,49,15,20,312,40,17,12,165,46,20,19,299,35*7A
$GPGSV,3,3,11,28,82,164,46,30,62,076,51,33,14,243,34*4D
$GLGSV,3,1,11,65,51,286,50,66,10,337,46,71,02,179,27,72,41,211,48*6D
$GLGSV,3,2,11,73,17,064,48,74,63,022,50,75,44,275,47,76,00,258,26*60
$GLGSV,3,3,11,82,02,001,44,83,24,045,48,84,21,104,46*54
$GNRMC,125315.60,A,4716.62949,N,03951.87950,E,5.373,345.63,050218,,,A*75
$GNGGA,125315.60,4716.62949,N,03951.87950,E,1,12,0.62,95.3,M,16.1,M,,*72
$GPGSV,3,1,11,05,23,240,46,07,37,087,49,08,22,046,47,11,,,40*47
$GPGSV,3,2,11,13,51,303,49,15,20,312,40,17,12,165,46,20,19,299,31*7E
$GPGSV,3,3,11,28,82,164,45,30,62,076,51,33,14,243,39*43
$GLGSV,3,1,11,65,51,286,50,66,10,337,47,71,02,179,27,72,41,211,48*6C
$GLGSV,3,2,11,73,17,064,48,74,63,022,50,75,44,275,47,76,00,258,27*61
$GLGSV,3,3,11,82,02,001,44,83,24,045,49,84,21,104,44*57
$GNRMC,125315.80,A,4716.62980,N,03951.87939,E,5.709,345.92,050218,,,A*76
$GNGGA,125315.80,4716.62980,N,03951.87939,E,1,12,0.65,95.3,M,16.1,M,,*71
$GPGSV,3,1,11,05,23,240,44,07,37,087,49,08,22,046,47,11,,,38*4A
$GPGSV,3,2,11,13,51,303,49,15,20,312,39,17,12,165,45,20,19,299,40*75
$GPGSV,3,3,11,28,82,164,46,30,62,076,51,33,14,243,33*4A
$GLGSV,3,1,11,65,51,286,49,66,10,337,42,71,02,179,26,72,41,211,48*60
$GLGSV,3,2,11,73,17,064,48,74,63,022,50,75,44,275,50,76,00,258,31*60
$GLGSV,3,3,11,82,02,001,45,83,24,045,48,84,21,104,44*57
$GNRMC,125316.00,A,4716.63013,N,03951.87927,E,6.116,345.48,050218,,,A*7C
$GNGGA,125316.00,4716.63013,N,03951.87927,E,1,12,0.62,95.3,M,16.1,M,,*70
$GPGSV,3,1,11,05,23,240,44,07,37,087,50,08,22,046,47,11,,,39*43
$GPGSV,3,2,11,13,51,303,49,15,20,312,38,17,12,165,44,20,19,299,38*7A
$GPGSV,3,3,11,28,82,164,46,30,62,076,51,33,14,243,36*4F
$GLGSV,3,1,11,65,51,286,50,66,10,337,44,71,02,179,26,72,41,211,48*6E
$GLGSV,3,2,11,73,17,064,48,74,63,022,50,75,44,275,48,76,00,258,31*69
$GLGSV,3,3,11,82,02,001,45,83,24,045,48,84,21,104,45*56
$GNRMC,125316.20,A,4716.63047,N,03951.87913,E,6.460,345.37,050218,,,A*74
$GNGGA,125316.20,4716.63047,N,03951.87913,E,1,12,0.62,95.3,M,16.1,M,,*74
$GPGSV,3,1,11,05,23,240,48,07,37,087,49,08,22,046,46,11,,,39*46
$GPGSV,3,2,11,13,51,303,49,15,20,312,36,17,12,165,44,20,19,299,40*7B
$GPGSV,3,3,11,28,82,164,46,30,62,076,51,33,14,243,37*4E
$GLGSV,3,1,11,65,51,286,50,66,10,337,47,71,02,179,26,72,41,211,49*6C
$GLGSV,3,2,11,73,17,064,48,74,63,022,50,75,44,275,51,76,00,258,31*61
$GLGSV,3,3,11,82,02,001,45,83,24,045,48,84,21,104,44*57
$GNRMC,125316.40,A,4716.63084,N,03951.87899,E,6.873,345.58,050218,,,A*79
$GNGGA,125316.40,4716.63084,N,03951.87899,E,1,12,0.62,95.3,M,16.1,M,,*7E
$GPGSV,3,1,11,05,23,240,45,07,37,087,50,08,22,046,46,11,,,39*43
$GPGSV,3,2,11,13,51,303,49,15,20,312,34,17,12,165,43,20,19,299,36*7F
$GPGSV,3,3,11,28,82,164,46,30,62,076,51,33,14,243,34*4D
$GLGSV,3,1,11,65,51,286,49,66,10,337,44,71,02,179,26,72,41,211,49*67
$GLGSV,3,2,11,73,17,064,47,74,63,022,50,75,44,275,48,76,00,258,24*62
$GLGSV,3,3,11,82,02,001,44,83,24,045,48,84,21,104,45*57
$GNRMC,125316.60,A,4716.63124,N,03951.87885,E,7.337,346.24,050218,,,A*7F
$GNGGA,125316.60,4716.63124,N,03951.87885,E,1,12,0.62,95.4,M,16.1,M,,*7D
$GPGSV,3,1,11,05,23,240,45,07,37,087,49,08,22,046,46,11,,,39*4B
$GPGSV,3,2,11,13,51,303,49,15,20,312,38,17,12,165,44,20,19,299,36*74
$GPGSV,3,3,11,28,82,164,46,30,62,076,51,33,14,243,36*4F
$GLGSV,3,1,11,65,51,286,50,66,10,337,45,71,02,179,26,72,41,211,48*6F
$GLGSV,3,2,11,73,17,064,47,74,63,022,50,75,44,275,51,76,00,258,24*6A
$GLGSV,3,3,11,82,02,001,43,83,24,045,48,84,21,104,45*50
$GNRMC,125316.80,A,4716.63167,N,03951.87869,E,7.985,345.62,050218,,,A*76
$GNGGA,125316.80,4716.63167,N,03951.87869,E,1,12,0.62,95.4,M,16.1,M,,*76
$GPGSV,3,1,11,05,23,240,44,07,37,087,49,08,22,046,46,11,,,39*4A
$GPGSV,3,2,11,13,51,303,50,15,20,312,40,17,12,165,44,20,19,299,34*71
$GPGSV,3,3,11,28,82,164,45,30,62,076,51,33,14,243,36*4C
$GLGSV,3,1,11,65,51,286,51,66,10,337,44,71,02,179,25,72,41,211,48*6C
$GLGSV,3,2,11,73,17,064,48,74,63,022,50,75,44,275,51,76,00,258,24*65
$GLGSV,3,3,11,82,02,001,43,83,24,045,48,84,21,104,44*51
$GNRMC,125317.00,A,4716.63211,N,03951.87852,E,8.257,345.64,050218,,,A*78
$GNGGA,125317.00,4716.63211,N,03951.87852,E,1,12,0.65,95.4,M,16.1,M,,*72
$GPGSV,3,1,11,05,23,240,45,07,37,087,49,08,22,046,47,11,,,39*4A
$GPGSV,3,2,11,13,51,303,49,15,20,312,44,17,12,165,44,20,19,299,37*7E
$GPGSV,3,3,11,28,82,164,46,30,62,076,51,33,14,243,36*4F
$GLGSV,3,1,11,65,51,286,51,66,10,337,46,71,02,179,26,72,41,211,47*62
$GLGSV,3,2,11,73,17,064,48,74,63,022,50,75,44,275,51,76,00,258,30*60
$GLGSV,3,3,11,82,02,001,42,83,24,045,48,84,21,104,45*51
$GNRMC,125317.20,A,4716.63258,N,03951.87834,E,8.712,345.43,050218,,,A*76
$GNGGA,125317.20,4716.63258,N,03951.87834,E,1,12,0.62,95.4,M,16.1,M,,*7A
$GPGSV,3,1,11,05,23,240,46,07,37,087,49,08,22,046,47,11,,,39*49
$GPGSV,3,2,11,13,51,303,49,15,20,312,46,17,12,165,45,20,19,299,42*7F
$GPGSV,3,3,11,28,82,164,47,30,62,076,51,33,14,243,39*41
$GLGSV,3,1,11,65,51,286,49,66,10,337,45,71,02,179,26,72,41,211,48*67
$GLGSV,3,2,11,73,17,064,48,74,63,022,50,75,44,275,50,76,00,258,30*61
$GLGSV,3,3,11,82,02,001,43,83,24,045,48,84,21,104,45*50
$GNRMC,125317.40,A,4716.63307,N,03951.87816,E,9.064,346.16,050218,,,A*7F
$GNGGA,125317.40,4716.63307,N,03951.87816,E,1,12,0.62,95.4,M,16.1,M,,*77
$GPGSV,3,1,11,05,23,240,44,07,37,087,49,08,22,046,46,11,,,37*44
$GPGSV,3,2,11,13,51,303,49,15,20,312,46,17,12,165,46,20,19,299,37*7E
$GPGSV,3,3,11,28,82,164,46,30,62,076,51,33,14,243,36*4F
$GLGSV,3,1,11,65,51,286,50,66,10,337,44,71,02,179,26,72,41,211,47*61
$GLGSV,3,2,11,73,17,064,49,74,63,022,50,75,44,275,46,76,00,258,30*67
$GLGSV,3,3,11,82,02,001,42,83,24,045,49,84,21,104,45*50
$GNRMC,125317.60,A,4716.63355,N,03951.87798,E,9.009,345.43,050218,,,A*7B
$GNGGA,125317.60,4716.63355,N,03951.87798,E,1,12,0.62,95.4,M,16.1,M,,*7B
$GPGSV,3,1,11,05,23,240,41,07,37,087,49,08,22,046,47,11,,,39*4E
$GPGSV,3,2,11,13,51,303,49,15,20,312,45,17,12,165,46,20,19,299,35*7F
$GPGSV,3,3,11,28,82,164,46,30,62,076,51,33,14,243,36*4F
$GLGSV,3,1,11,65,51,286,49,66,10,337,46,71,02,179,31,72,41,211,48*62
$GLGSV,3,2,11,73,17,064,49,74,63,022,51,75,44,275,46,76,00,258,25*62
$GLGSV,3,3,11,82,02,001,44,83,24,045,48,84,21,104,46*54
$GNRMC,125317.80,A,4716.63403,N,03951.87779,E,8.967,345.49,050218,,,A*74
$GNGGA,125317.80,4716.63403,N,03951.87779,E,1,12,0.62,95.4,M,16.1,M,,*7E
$GPGSV,3,1,11,05,23,240,39,07,37,087,50,08,22,046,47,11,,,37*47
$GPGSV,3,2,11,13,51,303,49,15,20,312,40,17,12,165,45,20,19,299,34*78
$GPGSV,3,3,11,28,82,164,45,30,62,076,51,33,14,243,33*49
$GLGSV,3,1,11,65,51,286,51,66,10,337,45,71,02,179,25,72,41,211,47*62
$GLGSV,3,2,11,73,17,064,48,74,63,022,50,75,44,275,47,76,00,258,25*63
$GLGSV,3,3,11,82,02,001,42,83,24,045,48,84,21,104,45*51
$GNRMC,125318.00,A,4716.63451,N,03951.87761,E,8.961,345.35,050218,,,A*70
$GNGGA,125318.00,4716.63451,N,03951.87761,E,1,12,0.62,95.4,M,16.1,M,,*77
$GPGSV,3,1,11,05,23,240,35,07,37,087,50,08,22,046,47,11,,,37*4B
$GPGSV,3,2,11,13,51,303,49,15,20,312,45,17,12,165,44,20,19,299,34*7C
$GPGSV,3,3,11,28,82,164,46,30,62,076,51,33,14,243,33*4A
$GLGSV,3,1,11,65,51,286,49,66,10,337,44,71,02,179,25,72,41,211,46*6B
$GLGSV,3,2,11,73,17,064,49,74,63,022,50,75,44,275,46,76,00,258,26*60
$GLGSV,3,3,11,82,02,001,44,83,24,045,48,84,21,104,45*57
$GNRMC,125318.20,A,4716.63499,N,03951.87743,E,8.947,345.59,050218,,,A*78
$GNGGA,125318.20,4716.63499,N,03951.87743,E,1,12,0.62,95.4,M,16.1,M,,*71
$GPGSV,3,1,11,05,23,240,43,07,37,087,50,08,22,046,47,11,10,093,39*7F
$GPGSV,3,2,11,13,51,303,49,15,20,312,43,17,12,165,44,20,19,299,39*77
$GPGSV,3,3,11,28,82,164,46,30,62,076,51,33,14,243,33*4A
$GLGSV,3,1,11,65,51,286,51,66,10,337,44,71,02,179,25,72,41,211,47*63
$GLGSV,3,2,11,73,17,064,49,74,63,022,50,75,44,275,50,76,00,258,31*61
$GLGSV,3,3,11,82,02,001,45,83,24,045,48,84,21,104,44*57
$GNRMC,125318.40,A,4716.63548,N,03951.87724,E,8.966,345.67,050218,,,A*7C
$GNGGA,125318.40,4716.63548,N,03951.87724,E,1,12,0.61,95.4,M,16.1,M,,*78
$GPGSV,3,1,11,05,23,240,45,07,37,087,49,08,22,046,47,11,10,093,39*71
$GPGSV,3,2,11,13,51,303,48,15,20,312,45,17,12,165,45,20,19,299,38*70
$GPGSV,3,3,11,28,82,164,46,30,62,076,51,33,14,243,36*4F
$GLGSV,3,1,11,65,51,286,50,66,10,337,45,71,02,179,26,72,41,211,45*62
$GLGSV,3,2,11,73,17,064,49,74,63,022,50,75,44,275,53,76,00,258,31*62
$GLGSV,3,3,11,82,02,001,45,83,24,045,48,84,21,104,44*57
$GNRMC,125318.60,A,4716.63597,N,03951.87706,E,9.157,345.48,050218,,,A*7A
$GNGGA,125318.60,4716.63597,N,03951.87706,E,1,12,0.61,95.4,M,16.1,M,,*78
$GPGSV,3,1,11,05,23,240,45,07,37,087,50,08,22,046,47,11,10,093,40*77
$GPGSV,3,2,11,13,51,303,49,15,20,312,45,17,12,165,44,20,19,299,39*71
$GPGSV,3,3,11,28,82,164,46,30,62,076,51,33,14,243,34*4D
$GLGSV,3,1,11,65,51,286,50,66,10,337,44,71,02,179,25,72,41,211,46*63
$GLGSV,3,2,11,73,17,064,49,74,63,022,50,75,44,275,51,76,00,258,31*60
$GLGSV,3,3,11,82,02,001,44,83,24,045,48,84,21,104,44*56
$GNRMC,125318.80,A,4716.63646,N,03951.87686,E,9.276,344.81,050218,,,A*76
$GNGGA,125318.80,4716.63646,N,03951.87686,E,1,12,0.61,95.4,M,16.1,M,,*70
$GPGSV,3,1,11,05,23,240,41,07,37,087,49,08,22,046,46,11,10,093,38*75
$GPGSV,3,2,11,13,51,303,49,15,20,312,36,17,12,165,45,20,19,299,41*7B
$GPGSV,3,3,11,28,82,164,46,30,62,076,51,33,14,243,34*4D
$GLGSV,3,1,11,65,51,286,50,66,10,337,45,71,02,179,25,72,41,211,45*61
$GLGSV,3,2,11,73,17,064,49,74,63,022,50,75,44,275,52,76,00,258,31*63
$GLGSV,3,3,11,82,02,001,45,83,24,045,48,84,21,104,44*57
$GNRMC,125319.00,A,4716.63697,N,03951.87666,E,9.483,345.53,050218,,,A*7F
$GNGGA,125319.00,4716.63697,N,03951.87666,E,1,12,0.61,95.4,M,16.1,M,,*7B
$GPGSV,3,1,11,05,23,240,35,07,37,087,49,08,22,046,46,11,10,093,36*78
$GPGSV,3,2,11,13,51,302,49,15,20,312,40,17,12,165,45,20,19,299,42*78
$GPGSV,3,3,11,28,82,164,46,30,62,076,51,33,14,243,30*49
$GLGSV,3,1,11,65,51,286,50,66,10,337,45,71,02,179,25,72,41,211,45*61
$GLGSV,3,2,11,73,17,064,48,74,63,022,50,75,44,275,51,76,00,258,34*64
$GLGSV,3,3,11,82,02,001,44,83,24,045,48,84,21,104,44*56
$GNRMC,125319.20,A,4716.63749,N,03951.87647,E,9.551,345.59,050218,,,A*78
$GNGGA,125319.20,4716.63749,N,03951.87647,E,1,12,0.61,95.4,M,16.1,M,,*78
$GPGSV,3,1,11,05,23,240,42,07,37,087,49,08,22,046,47,11,10,093,38*77
$GPGSV,3,2,11,13,51,302,49,15,20,312,44,17,12,165,46,20,19,299,40*7D
$GPGSV,3,3,11,28,82,164,46,30,62,076,51,33,14,243,33*4A
$GLGSV,3,1,11,65,51,286,50,66,10,337,46,71,02,179,25,72,41,211,43*64
$GLGSV,3,2,11,73,17,064,47,74,63,022,50,75,44,275,51,76,00,258,38*67
$GLGSV,3,3,11,82,02,001,43,83,24,045,48,84,21,104,45*50
$GNRMC,125319.40,A,4716.63801,N,03951.87627,E,9.789,345.39,050218,,,A*7A
$GNGGA,125319.40,4716.63801,N,03951.87627,E,1,12,0.61,95.4,M,16.1,M,,*7B
$GPGSV,3,1,11,05,23,240,40,07,37,087,49,08,22,046,46,11,10,093,38*74
$GPGSV,3,2,11,13,51,302,49,15,20,312,41,17,12,165,46,20,19,299,39*76
$GPGSV,3,3,11,28,82,164,46,30,62,076,51,33,14,243,36*4F
$GLGSV,3,1,11,65,51,286,50,66,10,337,46,71,02,179,24,72,41,211,44*62
$GLGSV,3,2,11,73,17,064,48,74,63,022,50,75,44,275,50,76,00,258,36*67
$GLGSV,3,3,11,82,02,001,44,83,24,045,48,84,21,104,45*57
$GNRMC,125319.60,A,4716.63855,N,03951.87607,E,10.018,345.51,050218,,,A*42
$GNGGA,125319.60,4716.63855,N,03951.87607,E,1,12,0.61,95.4,M,16.1,M,,*7A
$GPGSV,3,1,11,05,23,240,40,07,37,087,49,08,22,046,47,11,10,093,38*75
$GPGSV,3,2,11,13,51,302,49,15,20,312,47,17,12,165,47,20,19,299,29*70
$GPGSV,3,3,11,28,82,164,46,30,62,076,51,33,14,243,33*4A
$GLGSV,3,1,11,65,51,286,50,66,10,337,45,71,02,179,25,72,41,211,43*67
$GLGSV,3,2,11,73,17,064,48,74,63,022,50,75,44,275,48,76,00,258,32*6A
$GLGSV,3,3,11,82,02,001,44,83,24,045,48,84,21,104,45*57
$GNRMC,125319.80,A,4716.63910,N,03951.87586,E,10.269,345.89,050218,,,A*47
$GNGGA,125319.80,4716.63910,N,03951.87586,E,1,12,0.61,95.4,M,16.1,M,,*7E
$GPGSV,3,1,11,05,23,240,45,07,37,087,50,08,22,046,47,11,10,093,38*78
$GPGSV,3,2,11,13,51,302,49,15,20,312,43,17,12,165,47,20,19,299,38*74
$GPGSV,3,3,11,28,82,164,46,30,62,076,51,33,14,243,29*41
$GLGSV,3,1,11,65,51,286,50,66,10,337,46,71,02,179,25,72,41,211,46*61
$GLGSV,3,2,11,73,17,064,48,74,63,022,50,75,44,275,48,76,00,258,32*6A
$GLGSV,3,3,11,82,02,001,45,83,24,045,48,84,21,104,45*56
$GNRMC,125320.00,A,4716.63966,N,03951.87566,E,10.392,346.16,050218,,,A*4A
$GNGGA,125320.00,4716.63966,N,03951.87566,E,1,12,0.61,95.4,M,16.1,M,,*73
$GPGSV,3,1,11,05,23,240,45,07,37,087,49,08,22,046,47,11,10,093,38*70
$GPGSV,3,2,11,13,51,302,49,15,20,312,45,17,12,165,46,20,19,299,35*7E
$GPGSV,3,3,11,28,82,164,46,30,62,076,51,33,14,243,33*4A
$GLGSV,3,1,11,65,51,286,50,66,10,337,45,71,02,179,25,72,41,211,47*63
$GLGSV,3,2,11,73,17,064,48,74,63,022,50,75,44,275,48,76,00,258,35*6D
$GLGSV,3,3,11,82,02,001,44,83,24,045,48,84,21,104,45*57
$GNRMC,125320.20,A,4716.64023,N,03951.87544,E,10.557,345.16,050218,,,A*4B
$GNGGA,125320.20,4716.64023,N,03951.87544,E,1,12,0.61,95.4,M,16.1,M,,*7E
$GPGSV,3,1,11,05,23,240,43,07,37,087,49,08,22,046,46,11,10,093,38*77
$GPGSV,3,2,11,13,51,302,49,15,20,312,44,17,12,165,44,20,19,299,35*7D
$GPGSV,3,3,11,28,82,164,46,30,62,076,51,33,14,243,30*49
$GLGSV,3,1,11,65,51,286,49,66,10,337,46,71,02,179,25,72,41,211,48*67
$GLGSV,3,2,11,73,17,064,48,74,63,022,50,75,44,275,46,76,00,258,32*64
$GLGSV,3,3,11,82,02,001,43,83,24,045,48,84,21,104,45*50
$GNRMC,125320.40,A,4716.64081,N,03951.87523,E,10.664,346.33,050218,,,A*43
$GNGGA,125320.40,4716.64081,N,03951.87523,E,1,12,0.61,95.4,M,16.1,M,,*71
$GPGSV,3,1,11,05,23,240,44,07,37,087,49,08,22,046,47,11,10,093,38*71
$GPGSV,3,2,11,13,51,302,49,15,20,312,45,17,12,165,44,20,19,299,34*7D
$GPGSV,3,3,11,28,82,164,46,30,62,076,51,33,14,243,34*4D
$GLGSV,3,1,11,65,51,286,50,66,10,337,46,71,02,179,25,72,41,211,49*6E
$GLGSV,3,2,11,73,17,064,48,74,63,022,50,75,44,275,46,76,00,258,34*62
$GLGSV,3,3,11,82,02,001,43,83,24,045,48,84,21,104,45*50
$GNRMC,125320.60,A,4716.64139,N,03951.87500,E,10.876,345.30,050218,,,A*4F
$GNGGA,125320.60,4716.64139,N,03951.87500,E,1,12,0.61,95.4,M,16.1,M,,*70
$GPGSV,3,1,11,05,23,240,46,07,37,087,49,08,22,046,46,11,10,093,38*72
$GPGSV,3,2,11,13,51,302,48,15,20,312,45,17,12,165,44,20,19,299,40*7F
$GPGSV,3,3,11,28,82,164,46,30,62,076,51,33,14,243,34*4D
$GLGSV,3,1,11,65,51,286,50,66,10,337,48,71,02,179,26,72,41,211,48*62
$GLGSV,3,2,11,73,17,064,48,74,63,022,50,75,44,275,51,76,00,258,38*68
$GLGSV,3,3,11,82,02,001,44,83,24,045,48,84,21,104,45*57
$GNRMC,125320.80,A,4716.64198,N,03951.87477,E,11.022,345.00,050218,,,A*40
$GNGGA,125320.80,4716.64198,N,03951.87477,E,1,12,0.61,95.4,M,16.1,M,,*74
$GPGSV,3,1,11,05,23,240,45,07,37,087,49,08,22,046,46,11,10,093,38*71
$GPGSV,3,2,11,13,51,302,49,15,20,312,46,17,12,165,44,20,19,299,37*7D
$GPGSV,3,3,11,28,82,164,46,30,62,076,51,33,14,243,34*4D
$GLGSV,3,1,11,65,51,286,50,66,10,337,46,71,02,179,26,72,41,211,47*63
$GLGSV,3,2,11,73,17,064,48,74,63,022,50,75,44,275,50,76,00,258,34*65
$GLGSV,3,3,11,82,02,001,44,83,24,045,48,84,21,104,45*57
$GNRMC,125321.00,A,4716.64258,N,03951.87455,E,11.100,345.97,050218,,,A*49
$GNGGA,125321.00,4716.64258,N,03951.87455,E,1,12,0.61,95.4,M,16.1,M,,*72
$GPGSV,3,1,11,05,23,240,49,07,37,087,50,08,22,046,46,11,10,093,38*75
$GPGSV,3,2,11,13,51,302,49,15,20,312,44,17,12,165,46,20,19,299,39*73
$GPGSV,3,3,11,28,82,164,46,30,62,076,51,33,14,243,37*4E
$GLGSV,3,1,11,65,51,286,48,66,10,337,48,71,02,179,26,72,41,211,46*65
$GLGSV,3,2,11,73,17,064,47,74,63,022,50,75,44,275,52,76,00,258,30*6C
$GLGSV,3,3,11,82,02,001,44,83,24,045,48,84,21,104,45*57
$GNRMC,125321.20,A,4716.64318,N,03951.87433,E,11.213,346.21,050218,,,A*41
$GNGGA,125321.20,4716.64318,N,03951.87433,E,1,12,0.61,95.4,M,16.1,M,,*75
$GPGSV,3,1,11,05,23,240,48,07,37,087,49,08,22,046,46,11,10,093,38*7C
$GPGSV,3,2,11,13,51,302,48,15,20,312,41,17,12,165,46,20,19,299,39*77
$GPGSV,3,3,11,28,82,164,46,30,62,076,51,33,14,243,39*40
$GLGSV,3,1,11,65,51,286,50,66,10,337,47,71,02,179,26,72,41,211,47*62
$GLGSV,3,2,11,73,17,064,48,74,63,022,51,75,44,275,48,76,00,258,38*61
$GLGSV,3,3,11,82,02,001,43,83,24,045,48,84,21,104,45*50
$GNRMC,125321.40,A,4716.64379,N,03951.87409,E,11.481,345.43,050218,,,A*43
$GNGGA,125321.40,4716.64379,N,03951.87409,E,1,12,0.61,95.4,M,16.1,M,,*7D
$GPGSV,3,1,11,05,23,240,44,07,37,087,49,08,22,046,46,11,10,093,38*70
$GPGSV,3,2,11,13,51,302,48,15,20,312,41,17,12,165,45,20,19,299,40*7A
$GPGSV,3,3,11,28,82,164,46,30,62,076,51,33,14,243,31*48
$GLGSV,3,1,11,65,51,286,48,66,10,337,46,71,02,179,25,72,41,211,47*69
$GLGSV,3,2,11,73,17,064,48,74,63,022,51,75,44,275,47,76,00,258,35*63
$GLGSV,3,3,11,82,02,001,43,83,24,045,48,84,21,104,45*50
$GNRMC,125321.60,A,4716.64442,N,03951.87386,E,11.573,345.73,050218,,,A*41
$GNGGA,125321.60,4716.64442,N,03951.87386,E,1,12,0.61,95.5,M,16.1,M,,*71
$GPGSV,3,1,11,05,23,240,43,07,37,087,49,08,22,046,46,11,10,093,36*79
$GPGSV,3,2,11,13,51,302,49,15,20,312,43,17,12,165,45,20,19,299,41*78
$GPGSV,3,3,11,28,82,164,46,30,62,076,51,33,14,243,34*4D
$GLGSV,3,1,11,65,51,286,49,66,10,337,46,71,02,179,25,72,41,211,46*69
$GLGSV,3,2,11,73,17,064,47,74,63,022,51,75,44,275,52,76,00,258,35*68
$GLGSV,3,3,11,82,02,001,43,83,24,045,48,84,21,104,45*50
$GNRMC,125321.80,A,4716.64504,N,03951.87363,E,11.533,345.79,050218,,,A*49
$GNGGA,125321.80,4716.64504,N,03951.87363,E,1,12,0.61,95.4,M,16.1,M,,*76
$GPGSV,3,1,11,05,23,240,45,07,37,087,50,08,22,046,47,11,10,093,36*76
$GPGSV,3,2,11,13,51,302,50,15,20,312,44,17,12,165,45,20,19,299,36*77
$GPGSV,3,3,11,28,82,164,46,30,62,076,51,33,14,243,34*4D
$GLGSV,3,1,11,65,51,286,49,66,10,337,45,71,02,179,25,72,41,211,48*64
$GLGSV,3,2,11,73,17,064,48,74,63,022,50,75,44,275,50,76,00,258,31*60
$GLGSV,3,3,11,82,02,001,43,83,24,045,48,84,21,104,45*50
$GNRMC,125322.00,A,4716.64567,N,03951.87339,E,11.771,345.76,050218,,,A*43
$GNGGA,125322.00,4716.64567,N,03951.87339,E,1,12,0.61,95.5,M,16.1,M,,*76
$GPGSV,3,1,11,05,23,240,45,07,37,087,49,08,22,046,47,11,10,093,36*7E
$GPGSV,3,2,11,13,51,302,49,15,20,312,45,17,12,165,46,20,19,299,40*7C
$GPGSV,3,3,11,28,82,164,46,30,62,076,50,33,14,243,34*4C
$GLGSV,3,1,11,65,51,286,49,66,10,337,45,71,02,179,25,72,41,211,48*64
$GLGSV,3,2,11,73,17,064,49,74,63,022,50,75,44,275,48,76,00,258,34*6D
$GLGSV,3,3,11,82,02,001,43,83,24,045,48,84,21,104,45*50
$GNRMC,125322.20,A,4716.64631,N,03951.87315,E,11.876,345.86,050218,,,A*48
$GNGGA,125322.20,4716.64631,N,03951.87315,E,1,12,0.61,95.4,M,16.1,M,,*7B
$GPGSV,3,1,11,05,23,240,46,07,37,087,49,08,22,046,47,11,10,093,33*78
$GPGSV,3,2,11,13,51,302,49,15,20,312,45,17,12,165,44,20,19,299,37*7E
$GPGSV,3,3,11,28,82,164,46,30,62,076,51,33,14,243,33*4A
$GLGSV,3,1,11,65,51,286,49,66,10,337,44,71,02,179,25,72,41,211,48*65
$GLGSV,3,2,11,73,17,064,48,74,63,022,50,75,44,275,48,76,00,258,31*69
$GLGSV,3,3,11,82,02,001,40,83,24,045,48,84,21,104,45*53
$GNRMC,125322.40,A,4716.64695,N,03951.87291,E,11.937,345.74,050218,,,A*44
$GNGGA,125322.40,4716.64695,N,03951.87291,E,1,12,0.61,95.5,M,16.1,M,,*7F
$GPGSV,3,1,11,05,23,240,48,07,37,087,49,08,22,046,47,11,10,093,34*71
$GPGSV,3,2,11,13,51,302,49,15,20,312,44,17,12,165,44,20,19,299,36*7E
$GPGSV,3,3,11,28,82,164,46,30,62,076,51,33,14,243,38*41
$GLGSV,3,1,11,65,51,286,50,66,10,337,45,71,02,179,25,72,41,211,48*6C
$GLGSV,3,2,11,73,17,064,48,74,63,022,50,75,44,275,49,76,00,258,35*6C
$GLGSV,3,3,11,82,02,001,39,83,24,045,48,84,21,104,45*5D
$GNRMC,125322.60,A,4716.64760,N,03951.87267,E,12.102,346.34,050218,,,A*4E
$GNGGA,125322.60,4716.64760,N,03951.87267,E,1,12,0.61,95.5,M,16.1,M,,*7F
$GPGSV,3,1,11,05,23,240,47,07,37,087,49,08,22,046,47,11,10,093,36*7C
$GPGSV,3,2,11,13,51,302,49,15,20,312,47,17,12,165,45,20,19,299,40*7D
$GPGSV,3,3,11,28,82,164,46,30,62,076,50,33,14,243,36*4E
$GLGSV,3,1,11,65,51,286,50,66,10,337,46,71,02,179,24,72,41,211,49*6F
$GLGSV,3,2,11,73,17,064,49,74,63,022,50,75,44,275,53,76,00,258,34*67
$GLGSV,3,3,11,82,02,001,40,83,24,045,48,84,21,104,45*53
$GNRMC,125322.80,A,4716.64826,N,03951.87244,E,12.178,346.26,050218,,,A*42
$GNGGA,125322.80,4716.64826,N,03951.87244,E,1,12,0.61,95.5,M,16.1,M,,*7D
$GPGSV,3,1,11,05,23,240,47,07,37,087,49,08,22,046,47,11,10,093,36*7C
$GPGSV,3,2,11,13,51,302,49,15,20,312,45,17,12,165,46,20,19,299,39*72
$GPGSV,3,3,11,28,82,164,46,30,62,076,51,33,14,243,36*4F
$GLGSV,3,1,11,65,51,286,49,66,10,337,45,71,02,179,24,72,41,211,48*65
$GLGSV,3,2,11,73,17,064,48,74,63,022,50,75,44,275,52,76,00,258,34*67
$GLGSV,3,3,11,82,02,001,40,83,24,045,48,84,21,104,45*53
$GNRMC,125323.00,A,4716.64892,N,03951.87219,E,12.300,345.87,050218,,,A*49
$GNGGA,125323.00,4716.64892,N,03951.87219,E,1,12,0.61,95.5,M,16.1,M,,*73
$GPGSV,3,1,11,05,23,240,40,07,37,087,49,08,22,046,47,11,10,093,36*7B
$GPGSV,3,2,11,13,51,302,49,15,20,312,46,17,12,165,46,20,19,299,39*71
$GPGSV,3,3,11,28,82,164,46,30,62,076,51,33,14,243,29*41
$GLGSV,3,1,11,65,51,286,50,66,10,337,46,71,02,179,23,72,41,211,48*69
$GLGSV,3,2,11,73,17,064,48,74,63,022,50,75,44,275,53,76,00,258,38*6A
$GLGSV,3,3,11,82,02,001,39,83,24,045,48,84,21,104,44*5C
$GNRMC,125323.20,A,4716.64958,N,03951.87195,E,12.257,345.93,050218,,,A*4D
$GNGGA,125323.20,4716.64958,N,03951.87195,E,1,12,0.61,95.5,M,16.1,M,,*71
$GPGSV,3,1,11,05,23,240,35,07,37,087,49,08,22,046,47,11,10,093,36*79
$GPGSV,3,2,11,13,51,302,49,15,20,312,46,17,12,165,46,20,19,299,39*71
$GPGSV,3,3,11,28,82,164,46,30,62,076,51,33,14,243,34*4D
$GLGSV,3,1,11,65,51,286,49,66,10,337,46,71,02,179,23,72,41,211,48*61
$GLGSV,3,2,11,73,17,064,48,74,63,022,50,75,44,275,53,76,00,258,36*64
$GLGSV,3,3,11,82,02,001,40,83,24,045,48,84,21,104,45*53
$GNRMC,125323.40,A,4716.65024,N,03951.87170,E,12.331,346.09,050218,,,A*42
$GNGGA,125323.40,4716.65024,N,03951.87170,E,1,12,0.61,95.5,M,16.1,M,,*7F
$GPGSV,3,1,11,05,23,240,43,07,37,087,50,08,22,046,47,11,10,093,36*70
$GPGSV,3,2,11,13,51,302,49,15,20,312,48,17,12,165,46,20,19,299,34*72
$GPGSV,3,3,11,28,82,164,46,30,62,076,50,33,14,243,34*4C
$GLGSV,3,1,11,65,51,286,50,66,10,337,47,71,02,179,23,72,41,211,48*68
$GLGSV,3,2,11,73,17,064,48,74,63,022,50,75,44,275,53,76,00,258,40*65
$GLGSV,3,3,11,82,02,001,40,83,24,045,48,84,21,104,45*53
$GNRMC,125323.60,A,4716.65092,N,03951.87145,E,12.562,345.65,050218,,,A*42
$GNGGA,125323.60,4716.65092,N,03951.87145,E,1,12,0.61,95.5,M,16.1,M,,*76
$GPGSV,3,1,11,05,23,240,41,07,37,087,49,08,22,046,47,11,10,093,36*7A
$GPGSV,3,2,11,13,51,302,49,15,20,312,49,17,12,165,46,20,19,299,34*73
$GPGSV,3,3,11,28,82,164,46,30,62,076,51,33,14,243,36*4F
$GLGSV,3,1,11,65,51,286,50,66,10,337,45,71,02,179,23,72,41,211,47*65
$GLGSV,3,2,11,73,17,064,48,74,63,022,50,75,44,275,52,76,00,258,35*66
$GLGSV,3,3,11,82,02,001,42,83,24,045,48,84,21,104,44*50
$GNRMC,125323.80,A,4716.65159,N,03951.87120,E,12.461,345.93,050218,,,A*42
$GNGGA,125323.80,4716.65159,N,03951.87120,E,1,12,0.61,95.5,M,16.1,M,,*7D
$GPGSV,3,1,11,05,23,240,46,07,37,087,49,08,22,046,47,11,10,093,36*7D
$GPGSV,3,2,11,13,51,302,49,15,20,312,48,17,12,165,46,20,19,299,30*76
$GPGSV,3,3,11,28,82,164,46,30,62,076,51,33,14,243,39*40
$GLGSV,3,1,11,65,51,286,50,66,10,337,44,71,02,179,23,72,41,211,49*6A
$GLGSV,3,2,11,73,17,064,48,74,63,022,50,75,44,275,53,76,00,258,31*63
$GLGSV,3,3,11,82,02,001,44,83,24,045,48,84,21,104,45*57
$GNRMC,125324.00,A,4716.65226,N,03951.87096,E,12.334,346.08,050218,,,A*4C
$GNGGA,125324.00,4716.65226,N,03951.87096,E,1,12,0.61,95.5,M,16.1,M,,*75
$GPGSV,3,1,11,05,23,240,45,07,37,087,49,08,22,046,47,11,10,093,36*7E
$GPGSV,3,2,11,13,51,302,49,15,20,312,46,17,12,165,44,20,19,299,30*7A
$GPGSV,3,3,11,28,82,164,46,30,62,076,51,33,14,243,38*41
$GLGSV,3,1,11,65,51,286,50,66,10,337,46,71,02,179,23,72,41,211,47*66
$GLGSV,3,2,11,73,17,064,48,74,63,022,50,75,44,275,52,76,00,258,31*62
$GLGSV,3,3,11,82,02,001,43,83,24,045,47,84,21,104,45*5F
$GNRMC,125324.20,A,4716.65293,N,03951.87071,E,12.528,346.14,050218,,,A*4F
$GNGGA,125324.20,4716.65293,N,03951.87071,E,1,12,0.61,95.5,M,16.1,M,,*70
$GPGSV,3,1,11,05,23,240,45,07,37,087,49,08,22,046,47,11,10,093,36*7E
$GPGSV,3,2,11,13,51,302,49,15,20,312,47,17,12,165,46,20,19,299,34*7D
$GPGSV,3,3,11,28,82,164,46,30,62,076,51,33,14,243,36*4F
$GLGSV,3,1,11,65,51,286,50,66,10,337,45,71,02,179,23,72,41,211,48*6A
$GLGSV,3,2,11,73,17,064,48,74,63,022,50,75,44,275,52,76,00,258,31*62
$GLGSV,3,3,11,82,02,001,41,83,24,045,48,84,21,104,45*52
$GNRMC,125324.40,A,4716.65359,N,03951.87047,E,12.261,346.03,050218,,,A*47
$GNGGA,125324.40,4716.65359,N,03951.87047,E,1,12,0.61,95.5,M,16.1,M,,*74
$GPGSV,3,1,11,05,23,240,44,07,37,087,50,08,22,046,47,11,10,093,36*77
$GPGSV,3,2,11,13,51,302,49,15,20,312,47,17,12,165,46,20,19,299,37*7E
$GPGSV,3,3,11,28,82,164,46,30,62,076,51,33,14,243,33*4A
$GLGSV,3,1,11,65,51,286,49,66,10,337,45,71,02,179,22,72,41,211,48*63
$GLGSV,3,2,11,73,17,064,48,74,63,022,50,75,44,275,52,76,00,258,31*62
$GLGSV,3,3,11,82,02,001,44,83,24,045,48,84,21,104,45*57
$GNRMC,125324.60,A,4716.65425,N,03951.87023,E,12.160,346.17,050218,,,A*4C
$GNGGA,125324.60,4716.65425,N,03951.87023,E,1,12,0.61,95.5,M,16.1,M,,*78
$GPGSV,3,1,11,05,23,240,40,07,37,087,49,08,22,046,46,11,10,093,36*7A
$GPGSV,3,2,11,13,51,302,49,15,20,312,45,17,12,165,45,20,19,299,35*7D
$GPGSV,3,3,11,28,82,164,46,30,62,076,51,33,14,243,33*4A
$GLGSV,3,1,11,65,51,286,50,66,10,337,45,71,02,179,22,72,41,211,45*66
$GLGSV,3,2,11,73,17,064,48,74,63,022,50,75,44,275,53,76,00,258,37*65
$GLGSV,3,3,11,82,02,001,42,83,24,045,48,84,21,104,45*51
$GNRMC,125324.80,A,4716.65489,N,03951.87000,E,12.051,346.19,050218,,,A*48
$GNGGA,125324.80,4716.65489,N,03951.87000,E,1,12,0.61,95.5,M,16.1,M,,*71
$GPGSV,3,1,11,05,23,240,41,07,37,087,49,08,22,046,46,11,10,093,36*7B
$GPGSV,3,2,11,13,51,302,49,15,20,312,47,17,12,165,45,20,19,299,42*7F
$GPGSV,3,3,11,28,82,164,46,30,62,076,51,33,14,243,29*41
$GLGSV,3,1,11,65,51,286,50,66,10,337,45,71,02,179,22,72,41,211,46*65
$GLGSV,3,2,11,73,17,064,48,74,63,022,50,75,44,275,52,76,00,258,33*60
$GLGSV,3,3,11,82,02,001,41,83,24,045,47,84,21,104,45*5D
$GNRMC,125325.00,A,4716.65555,N,03951.86976,E,12.176,345.84,050218,,,A*4B
$GNGGA,125325.00,4716.65555,N,03951.86976,E,1,12,0.61,95.5,M,16.1,M,,*71
$GPGSV,3,1,11,05,23,240,43,07,37,087,50,08,22,046,46,11,10,093,36*71
$GPGSV,3,2,11,13,51,302,49,15,20,312,47,17,12,165,45,20,19,299,40*7D
$GPGSV,3,3,11,28,82,164,46,30,62,076,51,33,14,243,29*41
$GLGSV,3,1,11,65,51,286,50,66,10,337,45,71,02,179,21,72,41,211,47*67
$GLGSV,3,2,11,73,17,064,47,74,63,022,50,75,44,275,52,76,00,258,33*6F
$GLGSV,3,3,11,82,02,001,42,83,24,045,48,84,21,104,45*51
$GNRMC,125325.20,A,4716.65619,N,03951.86952,E,11.972,345.95,050218,,,A*4B
$GNGGA,125325.20,4716.65619,N,03951.86952,E,1,12,0.61,95.5,M,16.1,M,,*7E
$GPGSV,3,1,11,05,23,240,46,07,37,087,49,08,22,046,46,11,10,093,36*7C
$GPGSV,3,2,11,13,51,302,49,15,20,312,47,17,12,165,46,20,19,299,40*7E
$GPGSV,3,3,11,28,82,164,45,30,62,076,51,33,14,243,37*4D
$GLGSV,3,1,11,65,51,286,50,66,10,337,46,71,02,179,21,72,41,211,46*65
$GLGSV,3,2,11,73,17,064,48,74,63,022,50,75,44,275,53,76,00,258,27*64
$GLGSV,3,3,11,82,02,001,41,83,24,045,48,84,21,104,45*52
$GNRMC,125325.40,A,4716.65683,N,03951.86929,E,11.966,345.97,050218,,,A*45
$GNGGA,125325.40,4716.65683,N,03951.86929,E,1,12,0.61,95.5,M,16.1,M,,*77
$GPGSV,3,1,11,05,23,240,46,07,37,087,49,08,22,046,46,11,10,093,36*7C
$GPGSV,3,2,11,13,51,302,49,15,20,312,47,17,12,165,47,20,19,299,40*7F
$GPGSV,3,3,11,28,82,164,45,30,62,076,51,33,14,243,38*42
$GLGSV,3,1,11,65,51,286,50,66,10,337,46,71,02,179,21,72,41,211,47*64
$GLGSV,3,2,11,73,17,064,48,74,63,022,50,75,44,275,53,76,00,258,28*6B
$GLGSV,3,3,11,82,02,001,42,83,24,045,48,84,21,104,45*51
$GNRMC,125325.60,A,4716.65748,N,03951.86905,E,11.970,345.95,050218,,,A*4A
$GNGGA,125325.60,4716.65748,N,03951.86905,E,1,12,0.61,95.5,M,16.1,M,,*7D
$GPGSV,3,1,11,05,23,240,48,07,37,087,49,08,22,046,46,11,10,093,36*72
$GPGSV,3,2,11,13,51,302,49,15,20,312,47,17,12,165,46,20,19,299,43*7D
$GPGSV,3,3,11,28,82,164,45,30,62,076,50,33,14,243,37*4C
$GLGSV,3,1,11,65,51,286,50,66,10,337,46,71,02,179,21,72,41,211,47*64
$GLGSV,3,2,11,73,17,064,48,74,63,022,50,75,44,276,53,76,00,258,28*68
$GLGSV,3,3,11,82,02,001,39,83,24,045,48,84,21,104,46*5E
$GNRMC,125325.80,A,4716.65812,N,03951.86882,E,11.986,346.04,050218,,,A*48
$GNGGA,125325.80,4716.65812,N,03951.86882,E,1,12,0.61,95.5,M,16.1,M,,*7D
$GPGSV,3,1,11,05,23,240,45,07,37,087,49,08,22,046,46,11,10,093,36*7F
$GPGSV,3,2,11,13,51,302,49,15,20,312,48,17,12,165,45,20,19,299,41*73
$GPGSV,3,3,11,28,82,164,46,30,62,076,51,33,14,243,39*40
$GLGSV,3,1,11,65,51,286,50,66,10,337,46,71,02,179,21,72,41,211,48*6B
$GLGSV,3,2,11,73,17,064,48,74,63,022,50,75,44,276,52,76,00,258,28*69
$GLGSV,3,3,11,82,02,001,40,83,24,045,48,84,21,104,45*53
$GNRMC,125326.00,A,4716.65877,N,03951.86858,E,11.966,345.81,050218,,,A*47
$GNGGA,125326.00,4716.65877,N,03951.86858,E,1,12,0.61,95.5,M,16.1,M,,*72
$GPGSV,3,1,11,05,23,240,45,07,37,087,49,08,22,046,47,11,10,093,36*7E
$GPGSV,3,2,11,13,51,302,49,15,20,312,48,17,12,165,46,20,19,299,42*73
$GPGSV,3,3,11,28,82,164,46,30,62,076,51,33,14,243,39*40
$GLGSV,3,1,11,65,51,286,50,66,10,337,46,71,02,179,21,72,41,211,48*6B
$GLGSV,3,2,11,73,17,064,48,74,63,022,50,75,44,276,53,76,00,258,29*69
$GLGSV,3,3,11,82,02,001,37,83,24,045,48,84,21,104,45*53
$GNRMC,125326.20,A,4716.65940,N,03951.86834,E,11.888,345.75,050218,,,A*40
$GNGGA,125326.20,4716.65940,N,03951.86834,E,1,12,0.61,95.5,M,16.1,M,,*7F
$GPGSV,3,1,11,05,23,240,46,07,37,087,49,08,22,046,46,11,10,093,36*7C
$GPGSV,3,2,11,13,51,302,49,15,20,312,47,17,12,165,46,20,19,299,42*7C
$GPGSV,3,3,11,28,82,164,46,30,62,076,51,33,14,243,39*40
$GLGSV,3,1,11,65,51,286,49,66,10,337,45,71,02,179,21,72,41,211,48*60
$GLGSV,3,2,11,73,17,064,47,74,63,022,50,75,44,276,51,76,00,258,28*65
$GLGSV,3,3,11,82,02,001,38,83,24,045,48,84,21,104,45*5C
$GNRMC,125326.40,A,4716.66005,N,03951.86810,E,12.000,345.78,050218,,,A*4D
$GNGGA,125326.40,4716.66005,N,03951.86810,E,1,12,0.61,95.5,M,16.1,M,,*74
$GPGSV,3,1,11,05,23,240,48,07,37,087,49,08,22,046,47,11,10,093,36*73
$GPGSV,3,2,11,13,51,302,49,15,20,312,47,17,12,165,46,20,19,299,43*7D
$GPGSV,3,3,11,28,82,164,46,30,62,076,51,33,14,243,37*4E
$GLGSV,3,1,11,65,51,286,50,66,10,337,45,71,02,179,21,72,41,211,48*68
$GLGSV,3,2,11,73,17,064,47,74,63,022,50,75,44,276,52,76,00,258,28*66
$GLGSV,3,3,11,82,02,001,37,83,24,045,48,84,21,104,44*52
$GNRMC,125326.60,A,4716.66069,N,03951.86786,E,11.979,345.82,050218,,,A*44
$GNGGA,125326.60,4716.66069,N,03951.86786,E,1,12,0.61,95.5,M,16.1,M,,*7C
